[
    {
        "name": "The Anvil",
        "address": "Aston Rd, Shifnal, Shropshire, TF11 8DU",
        "latitude": 52.667289,
        "longitude": -2.368597,
        "pumps": 10
    },
    {
        "name": "The Bird in Hand",
        "address": "Victoria Square, Stafford, Staffordshire, ST16 2AQ",
        "latitude": 52.805629,
        "longitude": -2.119111,
        "pumps": 19
    },
    {
        "name": "The Black Country Arms",
        "address": "High St, Walsall, West Midlands, WS1 1QW",
        "latitude": 52.583310,
        "longitude": -1.979156,
        "pumps": 20
    },
    {
        "name": "The Bridge Inn",
        "address": "118 Moss Grove, Kingswinford, DY6 9HH",
        "latitude": 52.502711,
        "longitude": -2.170135,
        "pumps": 12
    },
    {
        "name": "The Bridge Tavern",
        "address": "55 Upper St. John Street, Lichfield, Staffordshire, WS14 9DT",
        "latitude": 52.679326,
        "longitude": -1.826402,
        "pumps": 10
    },
    {
        "name": "The Cottage Spring",
        "address": "9 Brook Street, Woodsetton, Dudley, West Midlands, DY3 1AD",
        "latitude": 52.535740,
        "longitude": -2.103066,
        "pumps": 8
    },
    {
        "name": "The Craven Arms",
        "address": "47 Upper Gough St, Birmingham, West Midlands, B1 1JG",
        "latitude": 52.475059,
        "longitude": -1.903754,
        "pumps": "12"
    },
    {
        "name": "The Cross Inn",
        "address": "34 Alcester Rd, Finstall, Bromsgrove, Worcestershire, B60 1EW",
        "latitude": 52.329582,
        "longitude": -2.029155,
        "pumps": 9
    },
    {
        "name": "The Cross Inn",
        "address": "Church Hill, Kinver, Stourbridge, West Midlands, DY7 6HZ",
        "latitude": 52.446268,
        "longitude": -2.224621,
        "pumps": 10
    },
    {
        "name": "The Dog",
        "address": "5 Lichfield Street, Burton-Upon-Trent, Staffordshire, DE14 3QZ",
        "latitude": 52.800581,
        "longitude": -1.631564,
        "pumps": 14
    },
    {
        "name": "The Duke of Cambridge",
        "address": "82 Coltham Road, Short Heath, Willenhall, West Midlands, WV12 5QD",
        "latitude": 52.607249,
        "longitude": -2.034182,
        "pumps": 16
    },
    {
        "name": "The Hanbury Turn",
        "address": "44 Hanbury Road, Stoke Heath, Bromsgrove, B60 4LU",
        "latitude": 52.314252,
        "longitude": -2.078277
    },
    {
        "name": "The Wellington",
        "address": "37 Bennetts Hill, Birmingham B2 5SN",
        "latitude": 52.480626,
        "longitude": -1.900479
    },
    {
        "name": "The Jewellers Arms",
        "address": "23 Hockley St, Birmingham B18 6BW",
        "latitude": 52.489556,
        "longitude": -1.911332
    },
    {
        "name": "The Prince of Wales",
        "address": "84 Cambridge St, Birmingham B1 2NP",
        "latitude": 52.479488,
        "longitude": -1.911650
    },
    {
        "name": "The Craven Arms",
        "address": "47 Upper Gough St, Birmingham B1 1JL",
        "latitude": 52.475075,
        "longitude": -1.903778
    }
]