{
    "crawls": [
        {
            "id": 1,
            "name": "Real Ale Trail 2026",
            "start": "2026-03-01",
            "end": "2026-06-01"
        },
        {
            "id": 2,
            "name": "JQ Beer Weekend 2026",
            "start": "2026-04-16",
            "end": "2026-04-19"
        }
    ],
    "venues": [
        {
            "name": "The Anvil",
            "address": "Aston Rd, Shifnal, Shropshire, TF11 8DU",
            "latitude": 52.667289,
            "longitude": -2.368597,
            "data": {
                "pumps": 10
            },
            "crawls": [
                1
            ]
        },
        {
            "name": "The Bird in Hand",
            "address": "Victoria Square, Stafford, Staffordshire, ST16 2AQ",
            "latitude": 52.805629,
            "longitude": -2.119111,
            "data": {
                "pumps": 19
            },
            "crawls": [
                1
            ]
        },
        {
            "name": "The Black Country Arms",
            "address": "High St, Walsall, West Midlands, WS1 1QW",
            "latitude": 52.583310,
            "longitude": -1.979156,
            "data": {
                "pumps": 20
            },
            "crawls": [
                1
            ]
        },
        {
            "name": "The Bridge Inn",
            "address": "118 Moss Grove, Kingswinford, DY6 9HH",
            "latitude": 52.502711,
            "longitude": -2.170135,
            "data": {
                "pumps": 12
            },
            "crawls": [
                1
            ]
        },
        {
            "name": "The Bridge Tavern",
            "address": "55 Upper St. John Street, Lichfield, Staffordshire, WS14 9DT",
            "latitude": 52.679326,
            "longitude": -1.826402,
            "data": {
                "pumps": 10
            },
            "crawls": [
                1
            ]
        },
        {
            "name": "The Cottage Spring",
            "address": "9 Brook Street, Woodsetton, Dudley, West Midlands, DY3 1AD",
            "latitude": 52.535740,
            "longitude": -2.103066,
            "data": {
                "pumps": 8
            },
            "crawls": [
                1
            ]
        },
        {
            "name": "The Craven Arms",
            "address": "47 Upper Gough St, Birmingham, West Midlands, B1 1JG",
            "latitude": 52.475059,
            "longitude": -1.903754,
            "data": {
                "pumps": "12"
            },
            "crawls": [
                1
            ]
        },
        {
            "name": "The Cross Inn",
            "address": "34 Alcester Rd, Finstall, Bromsgrove, Worcestershire, B60 1EW",
            "latitude": 52.329582,
            "longitude": -2.029155,
            "data": {
                "pumps": 9
            },
            "crawls": [
                1
            ]
        },
        {
            "name": "The Cross Inn",
            "address": "Church Hill, Kinver, Stourbridge, West Midlands, DY7 6HZ",
            "latitude": 52.446268,
            "longitude": -2.224621,
            "data": {
                "pumps": 10
            },
            "crawls": [
                1
            ]
        },
        {
            "name": "The Dog",
            "address": "5 Lichfield Street, Burton-Upon-Trent, Staffordshire, DE14 3QZ",
            "latitude": 52.800581,
            "longitude": -1.631564,
            "data": {
                "pumps": 14
            },
            "crawls": [
                1
            ]
        },
        {
            "name": "The Duke of Cambridge",
            "address": "82 Coltham Road, Short Heath, Willenhall, West Midlands, WV12 5QD",
            "latitude": 52.607249,
            "longitude": -2.034182,
            "data": {
                "pumps": 16
            },
            "crawls": [
                1
            ]
        },
        {
            "name": "The Hanbury Turn",
            "address": "44 Hanbury Road, Stoke Heath, Bromsgrove, B60 4LU",
            "latitude": 52.314252,
            "longitude": -2.078277,
            "data": {
                "pumps": 10
            },
            "crawls": [
                1
            ]
        },
        {
            "name": "The Harp",
            "address": "40 High Street, Albrighton, WV7 3JF",
            "latitude": 52.633622,
            "longitude": -2.274908,
            "data": {
                "pumps": 12
            },
            "crawls": [
                1
            ]
        },
        {
            "name": "The Hollybush",
            "address": "54 Mitton Street, Stourport-on-Severn, Worcestershire, DY13 9AA",
            "latitude": 52.339929,
            "longitude": -2.275785,
            "data": {
                "pumps": 10
            },
            "crawls": [
                1
            ]
        },
        {
            "name": "The Horse and Jockey",
            "address": "Market Street, Penkridge, ST19 5DH",
            "latitude": 52.725509,
            "longitude": -2.114900,
            "data": {
                "pumps": 12
            },
            "crawls": [
                1
            ]
        },
        {
            "name": "The Imperial Tavern",
            "address": "35 St Nicholas Street, Worcester, Worcestershire, WR1 1UW",
            "latitude": 52.193983,
            "longitude": -2.219933,
            "data": {
                "pumps": 12
            },
            "crawls": [
                1
            ]
        },
        {
            "name": "The Jewellers Arms",
            "address": "23 Hockley St, Birmingham B18 6BW",
            "latitude": 52.489556,
            "longitude": -1.911332,
            "data": {
                "pumps": 12
            },
            "crawls": [
                1,
                2
            ]
        },
        {
            "name": "The Kings Head",
            "address": "36 King Street, Leicester, Leicestershire, LE1 6RL",
            "latitude": 52.630666,
            "longitude": -1.131755,
            "data": {
                "pumps": 12
            },
            "crawls": [
                1
            ]
        },
        {
            "name": "The Lawford Arms",
            "address": "13 Main Street, Long Lawford, Rugby, CV23 9AY",
            "latitude": 52.379422,
            "longitude": -1.308510,
            "data": {
                "pumps": 6
            },
            "crawls": [
                1
            ]
        },
        {
            "name": "The Lych Gate Tavern",
            "address": "44 Queen Square, Wolverhampton, West Midlands, WV1 1TX",
            "latitude": 52.586385,
            "longitude": -2.128327,
            "data": {
                "pumps": 13
            },
            "crawls": [
                1
            ]
        },
        {
            "name": "The Market Tavern",
            "address": "Market Square, Tenbury Wells, WR15 8BL",
            "latitude": 52.310533,
            "longitude": -2.595343,
            "data": {
                "pumps": 12
            },
            "crawls": [
                1
            ]
        },
        {
            "name": "The New Inn",
            "address": "Ludgate Street, Tutbury, Burton-on-Trent, DE13 9NG",
            "latitude": 52.856627,
            "longitude": -1.686568,
            "data": {
                "pumps": 12
            },
            "crawls": [
                1
            ]
        },
        {
            "name": "The Nursery Tavern",
            "address": "38-39 Lord St, Coventry, Chapel Fields, CV5 8DA",
            "latitude": 52.407762,
            "longitude": -1.533585,
            "data": {
                "pumps": 10
            },
            "crawls": [
                1
            ]
        },
        {
            "name": "The Old Bulls Head",
            "address": "1 Redhall Road, Lower Gornal, Dudley, West Midlands, DY3 2NU",
            "latitude": 52.517721,
            "longitude": -2.126477,
            "data": {
                "pumps": 11
            },
            "crawls": [
                1
            ]
        },
        {
            "name": "The Old Bush Revived",
            "address": "44 Powke Lane, Rowley Regis, West Midlands, B65 0AD",
            "latitude": 52.476270,
            "longitude": -2.051069,
            "data": {
                "pumps": 12
            },
            "crawls": [
                1
            ]
        },
        {
            "name": "The Old Bush",
            "address": "High Street, Wombourne, WV5 9DT",
            "latitude": 52.536859,
            "longitude": -2.180765,
            "data": {
                "pumps": 12
            },
            "crawls": [
                1
            ]
        },
        {
            "name": "The Old Royal Library",
            "address": "2 Worcester Road, Malvern, Worcestershire, WR14 4QW",
            "latitude": 52.111949,
            "longitude": -2.329963,
            "data": {
                "pumps": 10
            },
            "crawls": [
                1
            ]
        },
        {
            "name": "The Orange Tree",
            "address": "16 King Street, Hereford, HR4 9BX",
            "latitude": 52.054532,
            "longitude": -2.718872,
            "data": {
                "pumps": 12
            },
            "crawls": [
                1
            ]
        },
        {
            "name": "The Pretty Bricks",
            "address": "5 John Street, Walsall, West Midlands, WS2 8AF",
            "latitude": 52.591296,
            "longitude": -1.985033,
            "data": {
                "pumps": 12
            },
            "crawls": [
                1
            ]
        },
        {
            "name": "The Prince of Wales",
            "address": "84 Cambridge St, Birmingham B1 2NP",
            "latitude": 52.479488,
            "longitude": -1.911650,
            "data": {
                "pumps": 12
            },
            "crawls": [
                1
            ]
        },
        {
            "name": "The Queens Head",
            "address": "111 Enville Street, Stourbridge, West Midlands, DY8 3TQ",
            "latitude": 52.458192,
            "longitude": -2.154707,
            "data": {
                "pumps": 12
            },
            "crawls": [
                1
            ]
        },
        {
            "name": "The Queens Head",
            "address": "128 High Street, Wordsley, West Midlands, DY8 5QS",
            "latitude": 52.482629,
            "longitude": -2.162043,
            "data": {
                "pumps": 10
            },
            "crawls": [
                1
            ]
        },
        {
            "name": "The Raglan Arms",
            "address": "50 Dunchurch Road, Rugby, Warwickshire, CV22 6AD",
            "latitude": 52.369202,
            "longitude": -1.264962,
            "data": {
                "pumps": 12
            },
            "crawls": [
                1
            ]
        },
        {
            "name": "The Railway Arms",
            "address": "62 Upper Bar, Newport, TF10 7EJ",
            "latitude": 52.766182,
            "longitude": -2.376893,
            "data": {
                "pumps": 12
            },
            "crawls": [
                1
            ]
        },
        {
            "name": "The Real Ale Tavern",
            "address": "67 Load Street, Bewdley, Worcestershire, DY12 2AW",
            "latitude": 52.375903,
            "longitude": -2.315224,
            "data": {
                "pumps": 12
            },
            "crawls": [
                1
            ]
        },
        {
            "name": "The Rising Sun",
            "address": "116 Horseley Road, Tipton, Dudley, West Midlands, DY4 7NH",
            "latitude": 52.534049,
            "longitude": -2.040254,
            "data": {
                "pumps": 14
            },
            "crawls": [
                1
            ]
        },
        {
            "name": "The Robin Hood",
            "address": "54 The Crescent, Willenhall, West Midlands, WV13 2QR",
            "latitude": 52.582679,
            "longitude": -2.039021,
            "data": {
                "pumps": 13
            },
            "crawls": [
                1
            ]
        },
        {
            "name": "The Royal Oak",
            "address": "Coton Hill, Shrewsbury, Shropshire, SY1 2DZ",
            "latitude": 52.715817,
            "longitude": -2.753462,
            "data": {
                "pumps": 10
            },
            "crawls": [
                1
            ]
        },
        {
            "name": "The Salmon",
            "address": "19 Butt Close Lane, Leicester, Leicestershire, LE1 4QA",
            "latitude": 52.638188,
            "longitude": -1.135940,
            "data": {
                "pumps": 12
            },
            "crawls": [
                1
            ]
        },
        {
            "name": "The Saracen's Head",
            "address": "4 The Tything, Worcester, WR1 1HD",
            "latitude": 52.197383,
            "longitude": -2.223168,
            "data": {
                "pumps": 15
            },
            "crawls": [
                1
            ]
        },
        {
            "name": "The Seven Stars",
            "address": "Brook Road, Oldswinford, Stourbridge, West Midlands, DY8 1NQ",
            "latitude": 52.449147,
            "longitude": -2.135127,
            "data": {
                "pumps": 25
            },
            "crawls": [
                1
            ]
        },
        {
            "name": "The Shrewsbury Arms",
            "address": "75-75A Eastgate Street, Stafford, Staffordshire, ST16 2NG",
            "latitude": 52.806584,
            "longitude": -2.114444,
            "data": {
                "pumps": 13
            },
            "crawls": [
                1
            ]
        },
        {
            "name": "The Starving Rascal",
            "address": "1 Brettell Lane, Stourbridge, Amblecote, DY8 4BN",
            "latitude": 52.472585,
            "longitude": -2.144694,
            "data": {
                "pumps": 12
            },
            "crawls": [
                1
            ]
        },
        {
            "name": "The Swan",
            "address": "Long Lane, Halesowen, West Midlands, B62 9JY",
            "latitude": 52.468516,
            "longitude": -2.031800,
            "data": {
                "pumps": 17
            },
            "crawls": [
                1
            ]
        },
        {
            "name": "The Swan",
            "address": "93 Pelsall Road, Walsall, WS8 7DL",
            "latitude": 52.645770,
            "longitude": -1.942617,
            "data": {
                "pumps": 12
            },
            "crawls": [
                1
            ]
        },
        {
            "name": "The Three Horseshoes",
            "address": "86 Witton Lane, West Bromwich, West Midlands, B71 2AQ",
            "latitude": 52.540933,
            "longitude": -2.007118,
            "data": {
                "pumps": 10
            },
            "crawls": [
                1
            ]
        },
        {
            "name": "The Unicorn",
            "address": "66 Corve Street, Ludlow, Shropshire, SY8 1DU",
            "latitude": 52.373164,
            "longitude": -2.719905,
            "data": {
                "pumps": 10
            },
            "crawls": [
                1
            ]
        },
        {
            "name": "The Uxbridge Arms",
            "address": "2 Church Street, Chasetown, WS7 3QL",
            "latitude": 52.669489,
            "longitude": -1.934404,
            "data": {
                "pumps": 16
            },
            "crawls": [
                1
            ]
        },
        {
            "name": "The Vine Inn",
            "address": "35 Lichfield Road, Wednesfield, Wolverhampton, West Midlands, WV11 1TN",
            "latitude": 52.602042,
            "longitude": -2.080413,
            "data": {
                "pumps": 10
            },
            "crawls": [
                1
            ]
        },
        {
            "name": "The Waggon & Horses",
            "address": "21 Stourbridge Road, Halesowen, West Midlands, B63 3TU",
            "latitude": 52.451447,
            "longitude": -2.054299,
            "data": {
                "pumps": 18
            },
            "crawls": [
                1
            ]
        },
        {
            "name": "The Wellington",
            "address": "37 Bennetts Hill, Birmingham B2 5SN",
            "latitude": 52.480626,
            "longitude": -1.900479,
            "data": {
                "pumps": 27
            },
            "crawls": [
                1
            ]
        },
        {
            "name": "The White Hart",
            "address": "High St, Shifnal, TF11 8BH",
            "latitude": 52.670861,
            "longitude": -2.372130,
            "data": {
                "pumps": 12
            },
            "crawls": [
                1
            ]
        },
        {
            "name": "The Whitley",
            "address": "211 Stourbridge Road, Halesowen, West Midlands, B63 3QX",
            "latitude": 52.453713,
            "longitude": -2.064459,
            "data": {
                "pumps": 10
            },
            "crawls": [
                1
            ]
        },
        {
            "name": "The Why Not Inn",
            "address": "Whynot Street, Cradley, Halesowen, B63 2JH",
            "latitude": 52.454243,
            "longitude": -2.090632,
            "data": {
                "pumps": 10
            },
            "crawls": [
                1
            ]
        },
        {
            "name": "The Windmill Inn",
            "address": "1 North Street, Rugby, Warwickshire, CV21 2AB",
            "latitude": 52.373271,
            "longitude": -1.262505,
            "data": {
                "pumps": 15
            },
            "crawls": [
                1
            ]
        }
    ]
}